{
  "Locations": [
    //{
    //  "Name": "Frederick",
    //  "Lat": 40.1183044,
    //  "Long": -104.9758078
    //},
    {
      "Name": "Ft Lauderdale, FL",
      "Lat": 26.242037,
      "Long": -80.131033
    },
    {
      "Name": "Deland, FL",
      "Lat": 29.03008743342794,
      "Long": -81.30322071174105
    },
    {
      "Name": "Sebastian, FL",
      "Lat": 27.817837093172923,
      "Long": -80.47179569240122
    },
    {
      "Name": "Sedalia, MO",
      "Lat": 38.703504904497464,
      "Long": -93.23565494124561
    },
    {
      "Name": "Lincoln, MO",
      "Lat": 38.39215787167412,
      "Long": -93.32514440496276
    }
  ],
  "ConnectionStrings": {
    "WeatherConnection": "Server=(localdb)\\mssqllocaldb;Database=Weather;Trusted_Connection=True;"
  }
}